stop_id,stop_code,stop_name,stop_lat,stop_lon,wheelchair_boarding
1,1001,Steinerne Brücke,48.397174,9.988201,1
10,1174,Beimerstetter Straße,48.446953,9.985911,1
100,1039,Kienlesberg,48.405879,9.983344,1
101,1039,Kienlesberg,48.405816,9.983368,1
102,1044,Neuer Friedhof,48.415719,9.986787,2
104,1048,Örlinger Straße,48.408746,10.001621,2
105,1049,Congress Centrum,48.400910,10.003470,1
1052,1345,Fünf-Bäume-Weg,48.396573,9.948603,2
1054,1324,Fünf-Bäume-Weg Mitte,48.396503,9.945020,2
1055,1325,Maienweg Nord,48.394818,9.945707,2
106,1049,Congress Centrum,48.400930,10.003850,1
107,1050,Willy-Brandt-Platz,48.402587,10.0008411,1
108,1050,Willy-Brandt-Platz,48.402704,10.001523,1
109,1050,Willy-Brandt-Platz,48.402704,10.001523,1
110,1050,Willy-Brandt-Platz,48.402587,10.000841,1
111,1050,Willy-Brandt-Platz,48.402340,10.000950,1
112,1250,Science Park III,48.424321,9.936747,1
113,1240,Universität Süd,48.421864,9.956355,1
1139,1700,ZUP,48.391876,10.002995,1
114,1050,Staufenring,48.403521,10.004344,1
1140,1700,ZUP,48.392274,10.003389,1
1141,1700,ZUP,48.392217,10.003636,1
1142,1724,Memminger Straße,48.385331,10.003736,1
1143,1724,Memminger Straße,48.385027,10.004132,1
1144,1727,Wiley Süd,48.376936,10.010562,1
1145,1727,Wiley Süd,48.376941,10.010601,1
1146,1729,Meininger Allee,48.394877,10.008491,1
1147,1729,Meininger Allee,48.394780,10.008201,1
1148,1741,Fachoberschule,48.388112,10.002607,2
1149,1741,Fachoberschule,48.388171,10.002786,2
115,1050,Staufenring,48.403501,10.004352,1
1152,1743,Neue Hochschule,48.379529,10.008690,1
1153,1743,Neue Hochschule,48.379561,10.009193,1
1154,1772,Danziger Straße,48.370815,10.011289,1
1155,1772,Danziger Straße,48.370739,10.011291,1
1156,1044,Neuer Friedhof,48.415789,9.986532,2
1157,1046,Wilhelmsburgkaserne,48.418049,9.983810,1
1158,1160,Hörvelsinger Weg,48.425467,9.986045,2
1159,1160,Hörvelsinger Weg,48.426004,9.986362,2
116,1050,Staufenring,48.403501,10.004352,2
1160,1161,Franzenhauserweg,48.428730,9.985454,2
1161,1161,Franzenhauserweg,48.429319,9.985571,2
1162,1162,Albstraße,48.434470,9.985897,2
1163,1162,Albstraße,48.435295,9.986199,2
1164,1167,Donau-Iller-Werkstätten,48.447326,9.984615,1
117,1050,Staufenring,48.403521,10.004344,2
118,1052,Donaustadion,48.404979,10.007489,1
1186,1700,ZUP,48.392006,10.003619,1
1187,1700,ZUP,48.391935,10.002784,1
119,1052,Donaustadion,48.404987,10.007633,1
1197,1714,Kasernstraße,48.396770,10.006530,2
1198,1714,Kasernstraße,48.396571,10.007023,2
12,1174,Beimerstetter Straße,48.446885,9.985989,1
120,1052,Donaustadion,48.404987,10.007633,1
1207,1744,Washingtonallee,48.379890,10.011129,1
121,1052,Donaustadion,48.404979,10.007489,1
122,1052,Donaustadion,48.405020,10.007000,1
123,1053,Wohnpark Friedrichsau,48.408438,10.008939,1
1235,1052,Donaustadion,48.405101,10.006927,1
1237,1080,Eugen-Bolz-Straße,48.420108,10.017469,1
1238,1080,Eugen-Bolz-Straße,48.420163,10.017439,1
1239,1083,Alfred-Delp-Weg,48.423520,10.013199,1
124,1053,Wohnpark Friedrichsau,48.408500,10.008978,1
1240,1083,Alfred-Delp-Weg,48.423425,10.013214,1
1241,1087,Egertweg,48.425830,10.012430,1
1242,1087,Egertweg,48.425684,10.012317,1
1243,1074,Haslacher Weg,48.430240,10.013950,1
1244,1074,Haslacher Weg,48.430185,10.013869,1
1245,1073,Thüringenweg,48.433220,10.019610,1
1246,1073,Thüringenweg,48.433252,10.019521,1
1247,1072,Mecklenburgweg,48.434440,10.023870,1
1248,1072,Mecklenburgweg,48.434495,10.023841,1
1249,1070,Ostpreußenweg,48.434353,10.030418,1
125,1053,Wohnpark Friedrichsau,48.408500,10.008978,1
126,1053,Wohnpark Friedrichsau,48.408438,10.008939,1
1262,1087,Egertweg,48.426177,10.012154,1
1263,1087,Egertweg,48.425861,10.012273,1
127,1054,Donauhalle,48.412107,10.011234,1
128,1054,Donauhalle,48.412149,10.011278,1
129,1054,Donauhalle,48.412149,10.011278,1
130,1054,Donauhalle,48.412107,10.011234,1
131,1240,Universität Süd,48.422207,9.956824,1
133,1240,Botanischer Garten,48.425885,9.956273,1
134,1249,Science Park II,48.421303,9.935887,1
135,1058,Ostplatz,48.406008,10.001261,1
136,1058,Ostplatz,48.405714,10.001853,1
137,1059,Steinhövelstraße,48.411099,10.005177,1
139,1060,Safranberg,48.412470,10.003189,1
1393,5001,Günzburg Bahnhof,48.460048,10.279413,1
1394,5001,Günzburg Bahnhof,48.460054,10.279404,1
14,2732,ZOB Blaustein,48.415537,9.918042,1
140,1060,Safranberg,48.412901,10.001774,1
141,1061,Albecker Steige,48.414002,10.003879,2
142,1070,Ostpreußenweg,48.434129,10.030753,1
143,1249,Science Park II,48.421554,9.936090,1
144,1072,Mecklenburgweg,48.434527,10.024744,1
145,1072,Mecklenburgweg,48.434530,10.024493,1
146,1073,Thüringenweg,48.433408,10.020448,1
147,1073,Thüringenweg,48.433379,10.020177,1
148,1074,Haslacher Weg,48.431105,10.015157,1
149,1074,Haslacher Weg,48.429919,10.013786,1
15,1393,Grimmelfinger Weg,48.385498,9.965486,1
150,1048,Örlinger Straße,48.409616,10.002760,1
151,1360,Römerplatz,48.389940,9.974001,1
152,1360,Römerplatz,48.390080,9.974080,1
153,1383,Gewerbeschulen Königstraße,48.385164,9.960586,1
155,1078,Ludwig-Beck-Straße,48.422142,10.007058,1
156,1078,Ludwig-Beck-Straße,48.422105,10.006969,1
157,1079,Eichenplatz,48.420157,10.004142,1
158,1079,Eichenplatz,48.419129,10.003202,1
16,1656,Halde,48.334170,9.934852,2
160,1080,Eugen-Bolz-Straße,48.421214,10.018580,1
161,1081,Eichberg,48.423477,10.005898,1
162,1081,Eichberg,48.422811,10.005364,1
1622,4101,Bahnhof,48.323523,10.050353,1
1623,4104,Bahnhof,48.323523,10.050353,1
163,1082,Eichberg Nord,48.426611,10.007585,1
164,1082,Eichberg Nord,48.426168,10.007024,1
165,1541,Donautal,48.348678,9.938039,1
167,1393,Grimmelfinger Weg,48.385486,9.965106,1
170,1099,SWU Betriebshof,48.396303,9.967702,2
171,1099,SWU Betriebshof,48.396381,9.968266,2
172,1022,Ensingerstraße,48.404544,9.988793,1
173,1023,Zeitblomstraße (Wendeanl.),48.402197,9.985725,2
174,1102,Loherstraße,48.432743,9.968714,1
175,1103,Junginger Straße,48.436601,9.972128,1
176,1103,Junginger Straße,48.436168,9.971652,1
177,1163,Rathaus Jungingen,48.442910,9.986620,1
178,1163,Rathaus Jungingen,48.442880,9.986650,1
179,1164,Schwarzenbergstraße,48.448864,9.986936,1
18,1656,Halde,48.334602,9.935149,2
180,1164,Schwarzenbergstraße,48.448720,9.985819,1
181,1165,Fichtenstraße,48.449328,9.991062,1
182,1165,Fichtenstraße,48.449432,9.990847,1
183,1166,Gehrnstraße,48.445879,9.992387,1
1839,1739,Donauklinik,48.393253,9.993492,1
184,1166,Gehrnstraße,48.445802,9.992387,1
185,1200,Eselsberg Hasenkopf,48.414307,9.963329,1
1869,1700,ZUP,48.391790,10.003200,1
187,1020,Stadtwerke,48.402572,9.986409,1
1873,4642,Bahnhof,48.305173,10.153345,1
188,1200,Eselsberg Hasenkopf,48.414310,9.962590,1
191,1202,Multscherschule,48.408658,9.967699,1
192,1202,Multscherschule,48.408384,9.968281,1
193,1210,Burgunderweg,48.408808,9.961352,1
194,1210,Burgunderweg,48.408727,9.961350,1
195,1218,Lupferbrücke,48.403578,9.956872,1
1954,1170,Edith-Stein-Ring,48.439817,9.992875,1
1955,1170,Edith-Stein-Ring,48.440003,9.993608,1
1956,1171,Margarete-Steiff-Straße,48.441433,9.996350,1
1957,1171,Margarete-Steiff-Straße,48.441747,9.996594,1
1958,1173,Auf dem Hart,48.439233,9.987594,1
1959,1173,Auf dem Hart,48.439029,9.986797,1
196,1218,Lupferbrücke,48.403571,9.956621,1
1960,1199,SWU Albstraße,48.439594,9.986608,2
1961,1131,Ulmer Steige,48.435384,9.944067,2
197,1220,Bahnhof Söflingen,48.403103,9.958610,2
1970,1745,Arena,48.381650,10.005640,1
1971,1745,Arena,48.382370,10.005770,1
198,1220,Bahnhof Söflingen,48.403065,9.959068,2
199,1222,Beringerbrücke,48.404655,9.966417,2
2,1001,Steinerne Brücke,48.397151,9.988641,1
200,1222,Beringerbrücke,48.404594,9.966340,2
201,1225,Bleicher Hag,48.406024,9.971880,2
202,1232,Lehrer Tal,48.406556,9.976148,1
203,1232,Lehrer Tal,48.406383,9.975497,1
204,1240,Universität Süd,48.422142,9.956944,1
2049,1012,Keplerstraße,48.405560,9.992612,1
205,1020,Stadtwerke,48.403100,9.986038,1
206,1240,Universität Süd,48.421839,9.956403,1
207,1240,Universität Süd,48.421935,9.956372,1
208,1241,Botanischer Garten,48.425073,9.956583,1
209,1241,Botanischer Garten,48.424679,9.956916,1
212,1245,Kliniken Wissenschaftsstadt,48.424132,9.951572,1
213,1245,Kliniken Wissenschaftsstadt,48.424080,9.951880,1
214,1246,Universität West,48.421961,9.947009,1
215,1246,Universität West,48.422110,9.947281,1
2156,1322,Leonberger Weg,48.391837,9.950197,2
2157,1331,Auf der Laue,48.395050,9.948840,1
216,1171,Manfred-Börner-Straße,48.419808,9.942683,1
217,1171,Manfred-Börner-Straße,48.419670,9.942766,1
218,1248,Hochschule,48.418752,9.938352,1
219,1248,Hochschule,48.418720,9.938351,1
2214,1391,Oberer Kuhberg,48.381842,9.953008,2
2215,1391,Oberer Kuhberg,48.381793,9.953039,2
222,1251,Kelternweg,48.413490,9.960160,2
223,1251,Kelternweg,48.413540,9.960270,2
224,1255,Heilmeyersteige,48.413896,9.950097,1
225,1255,Heilmeyersteige,48.413524,9.950754,1
226,1256,Virchowstraße,48.414109,9.946032,1
227,1256,Virchowstraße,48.414044,9.946147,1
2274,2728,Bahnhof Herrlingen,48.418464,9.897769,1
228,1257,Söflinger Weinberge,48.412356,9.941996,1
229,1257,Söflinger Weinberge,48.412212,9.942039,1
230,1258,Sonnenfeld,48.414131,9.937581,1
231,1258,Sonnenfeld,48.414142,9.937269,1
232,1260,Ruländerweg,48.408360,9.955980,1
2326,1022,Ensingerstraße,48.404500,9.988370,1
233,1260,Ruländerweg,48.408320,9.955960,1
2338,1396,Lindenhöhe,48.376720,9.947190,1
2339,1396,Lindenhöhe,48.376940,9.947440,1
234,1020,Stadtwerke,48.403573,9.985834,1
235,1253,Harthauser Straße,48.397000,9.932498,2
2352,1383,Gewerbeschulen Königstraße,48.385164,9.960690,1
2353,1000,ZOB Ost,48.397390,9.983630,1
236,1261,Traminerweg,48.411450,9.957080,1
237,1261,Traminerweg,48.411510,9.957070,1
238,1265,Veltlinerweg,48.409870,9.950190,1
239,1265,Veltlinerweg,48.409840,9.951350,1
240,1266,Ehrensteiner Feld,48.411379,9.948488,1
241,1266,Ehrensteiner Feld,48.411199,9.947832,1
2412,1000,ZOB Ost,48.397320,9.983930,1
2413,1000,ZOB Ost,48.397250,9.983930,1
2414,1000,ZOB Ost,48.397160,9.983930,1
242,1280,Beim Türmle,48.407823,9.955934,1
243,1280,Beim Türmle,48.407597,9.955921,1
2436,1390,Kuhberg Schulzentrum,48.383830,9.955690,1
2437,1390,Kuhberg Schulzentrum,48.383820,9.956180,1
244,1253,Harthauser Straße,48.397043,9.932612,2
2440,1087,Egertweg,48.425861,10.012273,1
245,1452,Schönstatt-Kapelle,48.395340,9.925120,2
248,1297,Sulzbachweg,48.389013,9.959686,2
249,1297,Sulzbachweg,48.388938,9.959651,2
250,1299,Sedanstraße,48.392198,9.960298,2
251,1299,Sedanstraße,48.392153,9.960267,2
252,1300,Söflingen,48.394850,9.955010,1
254,1300,Söflingen,48.394936,9.955188,1
255,1300,Söflingen,48.395338,9.954666,1
256,1301,Ottiliengasse,48.396857,9.955635,1
257,1301,Ottiliengasse,48.396684,9.955511,1
258,1310,Sonnenstraße,48.394712,9.958467,1
259,1310,Sonnenstraße,48.394590,9.957770,1
260,1310,Sonnenstraße,48.394590,9.957770,1
261,1310,Sonnenstraße,48.394712,9.958467,1
262,1310,Sonnenstraße,48.394510,9.956645,1
263,1311,Königstraße,48.394531,9.961094,1
264,1311,Königstraße,48.394461,9.961231,1
265,1311,Königstraße,48.394461,9.961231,1
266,1311,Königstraße,48.394531,9.961094,1
269,1321,Schongauer Weg,48.393477,9.948412,2
270,1321,Schongauer Weg,48.393420,9.948500,2
271,1322,Leonberger Weg,48.391824,9.949445,2
272,1322,Leonberger Weg,48.391870,9.949520,2
273,1323,Gleißelstetten,48.388069,9.947975,2
274,1323,Gleißelstetten,48.387754,9.947096,2
275,1329,Oberer Roter Berg,48.401420,9.935336,2
276,1332,Maienweg,48.389757,9.948611,2
277,1332,Maienweg,48.389657,9.948664,2
278,1333,Torstraße,48.395228,9.951881,2
279,1333,Torstraße,48.395117,9.951883,2
280,1339,Am Roten Berg,48.401091,9.939599,2
281,1339,Am Roten Berg,48.400813,9.940464,2
282,1340,Riedwiesenweg,48.401851,9.945140,2
283,1340,Riedwiesenweg,48.401768,9.945473,2
284,1341,St.-Jakob-Straße,48.400850,9.949299,2
285,1341,St.-Jakob-Straße,48.400461,9.950060,2
286,1342,Clarissenstraße,48.398951,9.953292,2
287,1342,Clarissenstraße,48.398866,9.953354,2
289,1349,Jägerstraße,48.400168,9.955649,2
290,1349,Jägerstraße,48.400131,9.955502,2
291,1350,Ehinger Tor,48.394682,9.981006,1
292,1350,Ehinger Tor,48.394696,9.981074,1
293,1350,Ehinger Tor,48.394696,9.981074,1
294,1350,Ehinger Tor,48.394682,9.981006,1
295,1350,Ehinger Tor,48.394710,9.981210,1
296,1350,Ehinger Tor,48.394780,9.980820,1
298,1351,Blücherstraße,48.393846,9.973695,1
299,1351,Blücherstraße,48.393850,9.972980,1
3,1002,Rathaus Ulm,48.397517,9.992864,1
300,1351,Blücherstraße,48.393850,9.972980,1
301,1351,Blücherstraße,48.393846,9.973695,1
302,1352,Theodor-Heuss-Platz,48.394781,9.968377,1
303,1352,Theodor-Heuss-Platz,48.394670,9.968450,1
304,1352,Theodor-Heuss-Platz,48.394670,9.968450,1
305,1352,Theodor-Heuss-Platz,48.394781,9.968377,1
306,1352,Theodor-Heuss-Platz,48.394887,9.968630,1
308,1353,Magirusstraße,48.394443,9.964743,1
309,1353,Magirusstraße,48.394410,9.963870,1
310,1353,Magirusstraße,48.394410,9.963870,1
311,1353,Magirusstraße,48.394443,9.964743,1
312,1354,Blautal-Center,48.400600,9.961730,1
313,1354,Blautal-Center,48.400447,9.961557,1
314,1354,Blautal-Center,48.400324,9.960533,1
317,1359,Haßlerstraße,48.389324,9.978621,1
318,1359,Haßlerstraße,48.388459,9.978067,1
319,1360,Römerplatz,48.389940,9.974001,1
320,1360,Römerplatz,48.390080,9.974080,1
322,1366,Beim B'scheid,48.401820,9.973913,1
323,1366,Beim B'scheid,48.401743,9.974054,1
324,1367,Auf der Gölde,48.400692,9.968199,1
325,1367,Auf der Gölde,48.400427,9.966807,1
326,1380,Saarlandstraße,48.388021,9.970767,1
3260,1087,Egertweg,48.425830,10.012430,1
327,1380,Saarlandstraße,48.387928,9.970362,1
332,1383,Gewerbeschulen Königstraße,48.384500,9.960220,1
333,1383,Gewerbeschulen Königstraße,48.384460,9.959639,1
334,1390,Kuhberg Schulzentrum,48.383820,9.954930,1
335,1390,Kuhberg Schulzentrum,48.383830,9.955300,1
3361,1540,Hans-Lorenser-Straße,48.356597,9.944231,2
341,1395,Barbaralinde,48.379300,9.950470,1
342,1395,Barbaralinde,48.379080,9.950060,1
343,1400,Rathausstraße,48.371920,9.936376,2
344,1400,Rathausstraße,48.371880,9.935899,2
345,1401,Häberlinweg,48.373096,9.941073,2
346,1401,Häberlinweg,48.373129,9.940979,2
347,1403,Eisenbahnstraße,48.370416,9.937003,2
348,1403,Eisenbahnstraße,48.370176,9.937086,2
349,1404,Haltepunkt Donautal,48.367124,9.939834,1
350,1404,Haltepunkt Donautal,48.366989,9.939766,1
351,1500,Steinbeisstraße,48.368598,9.953390,2
352,1500,Steinbeisstraße,48.368520,9.953326,2
353,1501,Liststraße,48.369688,9.949109,2
354,1501,Liststraße,48.369651,9.949060,2
355,1502,Daimlerstraße,48.367117,9.952982,2
3557,1390,Kuhberg Schulzentrum,48.383775,9.955289,1
3558,1383,Gewerbeschulen Königstraße,48.384668,9.960377,1
3559,1383,Gewerbeschulen Königstraße,48.384625,9.959908,1
356,1502,Daimlerstraße,48.366456,9.952723,2
3560,1393,Grimmelfinger Weg,48.385701,9.965781,1
3561,1393,Grimmelfinger Weg,48.385640,9.965312,1
3562,1380,Saarlandstraße,48.388021,9.970767,1
3563,1380,Saarlandstraße,48.387928,9.970362,1
3564,1360,Römerplatz,48.390863,9.975760,1
3565,1360,Römerplatz,48.390770,9.975428,1
3566,1361,Martin-Luther-Kirche,48.392770,9.978534,1
3567,1361,Martin-Luther-Kirche,48.392546,9.978551,1
357,1503,Heuweg,48.364582,9.952010,1
3570,1020,Stadtwerke,48.403573,9.985834,1
3571,1020,Stadtwerke,48.403100,9.986038,1
3572,1232,Lehrer Tal,48.406556,9.976148,1
3573,1232,Lehrer Tal,48.406383,9.975497,1
3574,1202,Multscherschule,48.408658,9.967699,1
3575,1202,Multscherschule,48.408384,9.968281,1
3576,1200,Eselsberg Hasenkopf,48.414177,9.963611,1
3577,1200,Eselsberg Hasenkopf,48.413872,9.963780,1
3578,1240,Universität Süd,48.422142,9.956944,1
3579,1240,Universität Süd,48.421839,9.956403,1
358,1503,Heuweg,48.364852,9.952117,1
3580,1241,Botanischer Garten,48.425190,9.956658,1
3581,1241,Botanischer Garten,48.424912,9.956829,1
3583,1245,Kliniken Wissenschaftsstadt,48.424374,9.952426,1
3584,1245,Kliniken Wissenschaftsstadt,48.424331,9.952453,1
3585,1246,Universität West,48.421855,9.947106,1
3586,1246,Universität West,48.422234,9.947201,1
3587,1247,Manfred-Börner-Straße,48.419746,9.942717,1
3588,1247,Manfred-Börner-Straße,48.419723,9.942736,1
3589,1248,Hochschule,48.418752,9.938352,1
359,1504,Maybachstraße,48.361514,9.946779,1
3590,1248,Hochschule,48.418720,9.938351,1
3591,1249,Science Park II,48.421440,9.935865,1
360,1504,Maybachstraße,48.361281,9.946275,1
362,1506,Benzstraße,48.366517,9.942464,2
363,1506,Benzstraße,48.366447,9.942483,2
364,1507,Boschstraße,48.370179,9.953896,1
365,1507,Boschstraße,48.371191,9.954389,1
367,1528,Hans-Reyhing-Weg,48.375051,9.955752,2
368,1528,Hans-Reyhing-Weg,48.375082,9.955331,2
37,1107,Wengenholz / Sportpark Nord,48.431114,9.962418,2
371,1532,Siemensstraße,48.362146,9.955000,1
372,1532,Siemensstraße,48.362141,9.954941,1
3745,1200,Eselsberg Hasenkopf,48.414326,9.962903,1
375,1539,Ernst-Abbe-Straße,48.353961,9.926313,1
376,1539,Ernst-Abbe-Straße,48.354109,9.925961,1
39,1107,Wengenholz / Sportpark Nord,48.431294,9.963559,2
393,1561,Graf-Arco-Straße,48.360091,9.938557,2
394,1561,Graf-Arco-Straße,48.360081,9.938294,2
401,1594,Kastbrücke,48.361956,9.962871,2
402,1594,Kastbrücke,48.361759,9.962664,2
407,1600,Pranger,48.360932,9.988371,1
408,1600,Pranger,48.360925,9.988180,1
409,1600,Pranger,48.360194,9.988559,1
411,1601,Oberer Wirt,48.355827,9.985470,2
412,1601,Oberer Wirt,48.356456,9.986297,2
413,1602,Alte Siedlung,48.353877,9.982843,2
414,1602,Alte Siedlung,48.353919,9.983316,2
415,1605,Kapelle,48.360476,9.983415,2
416,1605,Kapelle,48.360519,9.984275,2
417,1608,Ostermahdweg,48.365422,9.990912,2
418,1608,Ostermahdweg,48.364583,9.990544,2
419,1620,Erenlauh,48.358403,9.971099,1
420,1620,Erenlauh,48.358590,9.971087,1
421,1621,Fischerhauser Weg,48.360420,9.976480,1
422,1621,Fischerhauser Weg,48.360512,9.976464,1
423,1631,St.-Gallener-Straße,48.350160,9.978680,1
424,1631,St.-Gallener-Straße,48.349640,9.978680,1
426,1632,Kemptener Straße,48.346505,9.972948,1
427,1632,Kemptener Straße,48.346481,9.972877,1
429,1633,Saulgauer Straße,48.348220,9.968370,1
430,1633,Saulgauer Straße,48.348360,9.968225,1
431,1634,Tannenplatz Zentrum,48.351023,9.973075,1
432,1634,Tannenplatz Zentrum,48.351495,9.972929,1
433,1635,Reutlinger Straße,48.354550,9.970114,1
434,1635,Reutlinger Straße,48.354488,9.970039,1
436,1701,Adenauerbrücke,48.388751,9.988554,2
437,1701,Adenauerbrücke,48.388470,9.988149,2
438,1701,Adenauerbrücke,48.388510,9.989586,2
439,1702,Donaubad,48.385284,9.986987,2
440,1702,Donaubad,48.385052,9.986893,2
441,1703,Jakobsruhe,48.381422,9.990231,2
442,1703,Jakobsruhe,48.381851,9.989462,2
443,1704,Illerbrücke,48.372572,9.989541,2
444,1704,Illerbrücke,48.372702,9.989585,2
445,1705,Amtsgericht,48.391332,9.993790,2
446,1705,Amtsgericht,48.392009,9.994989,2
447,1706,Schützenstraße,48.393606,9.997487,2
448,1707,Donaucenter,48.394400,9.997220,1
449,1708,Petrusplatz,48.394710,9.998093,1
450,1708,Petrusplatz,48.394561,9.998247,1
451,1710,Rathaus Neu-Ulm,48.395136,10.000685,1
452,1710,Rathaus Neu-Ulm,48.395042,10.000725,1
458,1713,Augsburger Tor,48.398277,10.004100,2
459,1719,Waldeck,48.394222,10.010259,2
460,1719,Waldeck,48.394474,10.009652,2
461,1723,Gartenstraße,48.392437,10.000257,1
462,1725,Edisoncenter,48.379399,10.007450,2
463,1725,Edisoncenter,48.379295,10.007269,2
464,1731,Steubenstraße,48.390069,10.007568,1
465,1731,Steubenstraße,48.390226,10.007799,1
466,1732,Escheugraben,48.388117,10.005287,2
467,1732,Escheugraben,48.387656,10.006054,2
468,1733,Riedstraße,48.387981,10.010250,1
469,1733,Riedstraße,48.387909,10.009908,1
47,1102,Loherstraße,48.432175,9.967347,2
470,1734,Bradleystraße,48.385614,10.011383,1
471,1734,Bradleystraße,48.385684,10.011742,1
472,1735,Grethe-Weiser-Straße,48.384420,10.008660,1
473,1735,Grethe-Weiser-Straße,48.384590,10.009030,1
474,1736,Wiley Club,48.381301,10.007744,1
475,1736,Wiley Club,48.380926,10.007783,1
478,1765,Hasenweg,48.366927,10.010967,1
479,1766,Katholische Kirche,48.367236,10.013655,1
48,1134,Wendeschleife Mähringen,48.437362,9.936339,2
480,1767,Allgäuer Straße,48.363930,10.013960,1
481,1767,Allgäuer Straße,48.364010,10.014380,1
482,1768,Hafnerweg,48.366444,10.017895,2
483,1768,Hafnerweg,48.366117,10.018125,2
484,1769,Reichenberger Straße,48.369247,10.015085,1
485,1769,Reichenberger Straße,48.369420,10.014875,1
486,1771,Oberfeld,48.364016,10.011020,2
488,2708,Am Blaugarten,48.411216,9.929133,2
489,2708,Am Blaugarten,48.411041,9.929195,2
49,1132,Alte Straße,48.435551,9.943134,2
490,2710,Hofstraße,48.415236,9.923248,2
491,2710,Hofstraße,48.414780,9.923260,2
497,1540,Hans-Lorenser-Straße,48.356161,9.945124,2
502,1000,ZOB Ost,48.397390,9.983630,1
503,1000,ZOB Ost,48.397390,9.983930,1
505,1331,Auf der Laue,48.394904,9.948159,2
506,1254,Lise-Meitner-Straße,48.418778,9.934868,1
507,1254,Lise-Meitner-Straße,48.418789,9.934571,1
51,1132,Alte Straße,48.435557,9.943256,2
52,1133,Rathaus Mähringen,48.436123,9.940406,2
539,2761,Gasthof Blautal,48.415430,9.879760,2
541,1009,Hafengasse,48.398510,9.996300,1
58,1133,Rathaus Mähringen,48.436258,9.940422,2
59,1505,Dornierstraße,48.358694,9.942834,2
61,1505,Dornierstraße,48.358389,9.942567,2
621,1602,Alte Siedlung,48.353789,9.982736,2
622,1343,Sportzentrum TSG,48.397831,9.944631,2
623,1343,Sportzentrum TSG,48.397804,9.944939,2
624,1345,Fünf-Bäume-Weg,48.396409,9.948808,2
625,1346,Franz-Wiedemeier-Straße,48.398961,9.936816,2
626,1346,Franz-Wiedemeier-Straße,48.398961,9.936816,2
627,1431,Allewind,48.376464,9.891460,2
628,1431,Allewind,48.376594,9.893748,2
629,1432,Panoramastraße,48.377557,9.896644,2
63,1595,Lichternsee,48.358517,9.950693,2
630,1432,Panoramastraße,48.378134,9.896229,2
631,1433,Waldstraße,48.381881,9.897402,2
632,1433,Waldstraße,48.381965,9.897774,2
633,2702,Galgenbergstraße,48.414672,9.916356,2
634,2702,Galgenbergstraße,48.415331,9.915693,2
635,2704,Klingenstein,48.418480,9.908050,2
636,2704,Klingenstein,48.418230,9.908980,2
637,1451,Kirche Harthausen,48.390755,9.914221,2
638,1451,Kirche Harthausen,48.390749,9.914178,2
64,1002,Rathaus Ulm,48.397588,9.994077,1
640,2720,Lindenstraße,48.408549,9.934965,2
644,1903,Ortsstraße,48.401908,10.022584,1
645,1903,Ortsstraße,48.402101,10.022451,1
646,1904,Grundweg,48.403601,10.023367,1
647,1904,Grundweg,48.403562,10.022832,1
648,1906,Roseggerstraße,48.401751,10.024585,1
649,1651,Zollbrücke,48.343184,9.941634,2
65,1003,Rosengasse,48.400330,9.996830,1
650,1651,Zollbrücke,48.342700,9.940977,2
651,1652,Hoher Berg,48.338521,9.939166,2
652,1652,Hoher Berg,48.338769,9.939116,2
655,1671,Wasserturm,48.331587,9.932981,2
656,1671,Wasserturm,48.331733,9.933127,2
657,1672,Illerkirchberger Straße,48.328169,9.931946,2
66,1003,Rosengasse,48.400749,9.996778,1
660,1000,ZOB Ost,48.397470,9.983930,1
67,1595,Lichternsee,48.359215,9.951793,2
68,1005,Haus der Begegnung,48.397720,9.998200,1
69,1005,Haus der Begegnung,48.397690,9.998220,1
70,1006,Gänsturm,48.398930,10.001120,1
707,1000,ZOB Ost,48.397540,9.983930,1
708,1000,ZOB Ost,48.397620,9.983930,1
709,1933,Leipheimer Straße,48.407308,10.046869,2
71,1006,Gänsturm,48.398670,10.000990,1
710,1934,Kirchstraße,48.407895,10.042201,2
711,1936,Altes Rathaus,48.410245,10.039765,2
712,1936,Altes Rathaus,48.410175,10.039790,2
714,1937,Platzgasse,48.408598,10.035448,2
715,1937,Platzgasse,48.408193,10.035053,2
716,1938,Stauffenbergstraße,48.405689,10.030663,2
717,1938,Stauffenbergstraße,48.405609,10.030369,2
718,1939,Trissinoplatz,48.406835,10.033033,2
719,1939,Trissinoplatz,48.406780,10.032918,2
72,1008,Hauptbahnhof,48.399745,9.984147,1
720,1940,Winterstraße,48.411838,10.043754,2
73,1008,Hauptbahnhof,48.399340,9.984220,1
74,1008,Hauptbahnhof,48.399340,9.984220,1
75,1008,Hauptbahnhof,48.399830,9.984040,1
750,1942,Schulzentrum Pfuhl,48.414237,10.053843,1
751,1864,Borsigstraße,48.395759,10.016484,2
752,1864,Borsigstraße,48.395745,10.016556,2
753,1871,Lessingstraße,48.396730,10.024670,2
754,1871,Lessingstraße,48.396900,10.025600,2
755,1961,Bahnhof Burlafingen,48.410765,10.069126,1
756,1962,Dorfplatz Burlafingen,48.415263,10.068100,1
757,1964,Glöcklerstraße,48.416436,10.065190,1
758,1968,Schule Burlafingen,48.412041,10.069777,1
76,1009,Hafengasse,48.398422,9.996086,1
767,1412,Ensostraße,48.352574,9.905399,2
768,1412,Ensostraße,48.352505,9.905962,2
769,1413,Hirsch Einsingen,48.352839,9.900162,2
77,1010,Theater,48.400943,9.987055,1
770,1414,Kirche Einsingen,48.354345,9.894986,2
771,14141,Kirche Einsingen,48.353904,9.895131,2
773,1506,Benzstraße,48.365717,9.941758,2
774,1506,Benzstraße,48.365706,9.941817,2
775,1421,Ringinger Straße,48.361229,9.879654,2
776,1421,Ringinger Straße,48.361077,9.879633,2
777,1422,Rathaus Eggingen,48.363918,9.878838,2
778,1422,Rathaus Eggingen,48.363716,9.878826,2
78,1010,Theater,48.400706,9.986000,1
79,1010,Theater,48.400706,9.986000,1
796,2761,Gasthof Blautal,48.415490,9.880450,2
797,2763,Bildstöckle,48.413360,9.874270,2
798,1413,Hirsch Einsingen,48.352780,9.900359,2
80,1010,Theater,48.400943,9.987055,1
821,1362,St.-Elisabeth-Kirche,48.395657,9.973366,2
83,1011,Justizgebäude,48.401960,9.992794,1
84,1011,Justizgebäude,48.401930,9.992999,1
85,1011,Justizgebäude,48.401930,9.992999,1
86,1011,Justizgebäude,48.401960,9.992794,1
88,1557,Nicolaus-Otto-Straße,48.361665,9.932833,2
904,1906,Roseggerstraße,48.401639,10.023911,1
91,1557,Nicolaus-Otto-Straße,48.361578,9.933629,2
92,1012,Keplerstraße,48.405541,9.992789,1
93,1025,Frauenstraße,48.406200,9.993610,2
94,1025,Frauenstraße,48.406780,9.992780,2
95,1030,Kliniken Michelsberg,48.411350,9.992190,1
96,1030,Kliniken Michelsberg,48.411264,9.992324,1
964,1015,Herdbruckerstraße,48.396460,9.995795,1
965,1015,Herdbruckerstraße,48.396516,9.995831,1
97,1031,Frauensteige,48.409720,9.990720,1
98,1032,Schillerhöhe,48.408149,9.988950,2
99,1032,Schillerhöhe,48.407680,9.988150,2
